{
  "type": "FeatureCollection",
  "features": [
    {
      "type": "Feature",
      "geometry": {
        "type": "Point",
        "coordinates": [
          -0.1801802,
          51.4141907
        ]
      },
      "properties": {
        "name": "David Lloyd Colliers Wood",
        "address": "Chapter Way 29",
        "postcode": "SW19 2RF",
        "sport": ""
      }
    },
    {
      "type": "Feature",
      "geometry": {
        "type": "Point",
        "coordinates": [
          -0.0671797,
          51.507782
        ]
      },
      "properties": {
        "name": "Fitness First",
        "address": "Thomas More Square",
        "postcode": "",
        "sport": ""
      }
    },
    {
      "type": "Feature",
      "geometry": {
        "type": "Point",
        "coordinates": [
          -0.1278575,
          51.5243645
        ]
      },
      "properties": {
        "name": "Bannatyne Health Club",
        "address": "Woburn Place 32",
        "postcode": "WC1H 0JR",
        "sport": "swimming"
      }
    },
    {
      "type": "Feature",
      "geometry": {
        "type": "Point",
        "coordinates": [
          -0.191566,
          51.4899057
        ]
      },
      "properties": {
        "name": "London Lifestyle Academy",
        "address": "Earls Court Square",
        "postcode": "SW5 9DJ",
        "sport": "yoga"
      }
    },
    {
      "type": "Feature",
      "geometry": {
        "type": "Point",
        "coordinates": [
          -0.1088338,
          51.5188678
        ]
      },
      "properties": {
        "name": "Gymbox",
        "address": "",
        "postcode": "",
        "sport": ""
      }
    },
    {
      "type": "Feature",
      "geometry": {
        "type": "Point",
        "coordinates": [
          -0.0797405,
          51.5052345
        ]
      },
      "properties": {
        "name": "Third Space",
        "address": "More London Riverside 2b",
        "postcode": "SE1 2AP",
        "sport": ""
      }
    },
    {
      "type": "Feature",
      "geometry": {
        "type": "Point",
        "coordinates": [
          -0.1907913,
          51.5362334
        ]
      },
      "properties": {
        "name": "Bannatyne Health Club",
        "address": "Greville Road 4",
        "postcode": "NW6 5HZ",
        "sport": ""
      }
    },
    {
      "type": "Feature",
      "geometry": {
        "type": "Point",
        "coordinates": [
          -0.101612,
          51.5371752
        ]
      },
      "properties": {
        "name": "Nuffield Health Fitness & Wellbeing",
        "address": "",
        "postcode": "",
        "sport": ""
      }
    },
    {
      "type": "Feature",
      "geometry": {
        "type": "Point",
        "coordinates": [
          -0.1798674,
          51.5191877
        ]
      },
      "properties": {
        "name": "Nuffield Health Fitness & Wellbeing",
        "address": "Sheldon Square 2",
        "postcode": "",
        "sport": ""
      }
    },
    {
      "type": "Feature",
      "geometry": {
        "type": "Point",
        "coordinates": [
          -0.068428,
          51.595712
        ]
      },
      "properties": {
        "name": "EasyGym",
        "address": "High Road 570,590",
        "postcode": "N17 9TA",
        "sport": ""
      }
    },
    {
      "type": "Feature",
      "geometry": {
        "type": "Point",
        "coordinates": [
          -0.0814852,
          51.5035613
        ]
      },
      "properties": {
        "name": "Tokei Centre",
        "address": "Magdalen Street 28",
        "postcode": "SE1 2EN",
        "sport": "martial_arts"
      }
    },
    {
      "type": "Feature",
      "geometry": {
        "type": "Point",
        "coordinates": [
          -0.2190954,
          51.5036024
        ]
      },
      "properties": {
        "name": "Fitness First",
        "address": "",
        "postcode": "",
        "sport": ""
      }
    },
    {
      "type": "Feature",
      "geometry": {
        "type": "Point",
        "coordinates": [
          -0.104843,
          51.531151
        ]
      },
      "properties": {
        "name": "Virgin Active",
        "address": "",
        "postcode": "",
        "sport": ""
      }
    },
    {
      "type": "Feature",
      "geometry": {
        "type": "Point",
        "coordinates": [
          -0.1180955,
          51.5207604
        ]
      },
      "properties": {
        "name": "PureGym",
        "address": "Theobalds Road 84",
        "postcode": "WC1X 8RW",
        "sport": "gym"
      }
    },
    {
      "type": "Feature",
      "geometry": {
        "type": "Point",
        "coordinates": [
          -0.1226819,
          51.5806798
        ]
      },
      "properties": {
        "name": "Virgin Active",
        "address": "",
        "postcode": "",
        "sport": ""
      }
    },
    {
      "type": "Feature",
      "geometry": {
        "type": "Point",
        "coordinates": [
          -0.078871,
          51.5127141
        ]
      },
      "properties": {
        "name": "Fitness First",
        "address": "Fenchurch Street 106",
        "postcode": "",
        "sport": ""
      }
    },
    {
      "type": "Feature",
      "geometry": {
        "type": "Point",
        "coordinates": [
          -0.076255,
          51.511247
        ]
      },
      "properties": {
        "name": "Fitness First",
        "address": "",
        "postcode": "",
        "sport": ""
      }
    },
    {
      "type": "Feature",
      "geometry": {
        "type": "Point",
        "coordinates": [
          -0.1189539,
          51.5178353
        ]
      },
      "properties": {
        "name": "GymBox",
        "address": "",
        "postcode": "",
        "sport": ""
      }
    },
    {
      "type": "Feature",
      "geometry": {
        "type": "Point",
        "coordinates": [
          -0.0943986,
          51.4856666
        ]
      },
      "properties": {
        "name": "The Gym",
        "address": "Walworth Road 332-344",
        "postcode": "SE17 2NA",
        "sport": ""
      }
    },
    {
      "type": "Feature",
      "geometry": {
        "type": "Point",
        "coordinates": [
          -0.1011392,
          51.5039916
        ]
      },
      "properties": {
        "name": "The Ring",
        "address": "",
        "postcode": "",
        "sport": "boxing"
      }
    },
    {
      "type": "Feature",
      "geometry": {
        "type": "Point",
        "coordinates": [
          -0.09079,
          51.5008338
        ]
      },
      "properties": {
        "name": "PureGym",
        "address": "",
        "postcode": "",
        "sport": ""
      }
    },
    {
      "type": "Feature",
      "geometry": {
        "type": "Point",
        "coordinates": [
          -0.2163098,
          51.358184
        ]
      },
      "properties": {
        "name": "The Chatsworth Studio",
        "address": "",
        "postcode": "",
        "sport": "pilates"
      }
    },
    {
      "type": "Feature",
      "geometry": {
        "type": "Point",
        "coordinates": [
          -0.1181935,
          51.523972
        ]
      },
      "properties": {
        "name": "Nuffield Health Fitness & Wellbeing",
        "address": "",
        "postcode": "",
        "sport": ""
      }
    },
    {
      "type": "Feature",
      "geometry": {
        "type": "Point",
        "coordinates": [
          -0.187294,
          51.5107279
        ]
      },
      "properties": {
        "name": "Barry's",
        "address": "Queensway 9a",
        "postcode": "W2 4QJ",
        "sport": ""
      }
    },
    {
      "type": "Feature",
      "geometry": {
        "type": "Point",
        "coordinates": [
          -0.124991,
          51.5775571
        ]
      },
      "properties": {
        "name": "=Results",
        "address": "Crouch End Hill 56",
        "postcode": "",
        "sport": ""
      }
    },
    {
      "type": "Feature",
      "geometry": {
        "type": "Point",
        "coordinates": [
          -0.0745587,
          51.5015386
        ]
      },
      "properties": {
        "name": "The Circle Gym and Spa",
        "address": "Queen Elizabeth Street",
        "postcode": "SE1 2JE",
        "sport": "gymnastics;swimming"
      }
    },
    {
      "type": "Feature",
      "geometry": {
        "type": "Point",
        "coordinates": [
          -0.1975072,
          51.4806815
        ]
      },
      "properties": {
        "name": "PureGym",
        "address": "Jerdan Place 25",
        "postcode": "SW6 1BE",
        "sport": ""
      }
    },
    {
      "type": "Feature",
      "geometry": {
        "type": "Point",
        "coordinates": [
          -0.1695235,
          51.4634134
        ]
      },
      "properties": {
        "name": "Fitness First",
        "address": "",
        "postcode": "",
        "sport": "fitness"
      }
    },
    {
      "type": "Feature",
      "geometry": {
        "type": "Point",
        "coordinates": [
          0.1125026,
          51.3922655
        ]
      },
      "properties": {
        "name": "Hitio Gym",
        "address": "",
        "postcode": "",
        "sport": ""
      }
    },
    {
      "type": "Feature",
      "geometry": {
        "type": "Point",
        "coordinates": [
          -0.1216567,
          51.5097075
        ]
      },
      "properties": {
        "name": "Virgin Active",
        "address": "",
        "postcode": "",
        "sport": "fitness"
      }
    },
    {
      "type": "Feature",
      "geometry": {
        "type": "Point",
        "coordinates": [
          -0.1908505,
          51.5477431
        ]
      },
      "properties": {
        "name": "Movers and Shapers",
        "address": "",
        "postcode": "",
        "sport": ""
      }
    },
    {
      "type": "Feature",
      "geometry": {
        "type": "Point",
        "coordinates": [
          -0.1179981,
          51.5632666
        ]
      },
      "properties": {
        "name": "Hello Yoga Studio & Fair-Well Shop",
        "address": "",
        "postcode": "",
        "sport": "yoga"
      }
    },
    {
      "type": "Feature",
      "geometry": {
        "type": "Point",
        "coordinates": [
          -0.0970366,
          51.5117385
        ]
      },
      "properties": {
        "name": "Fitness First",
        "address": "",
        "postcode": "",
        "sport": ""
      }
    },
    {
      "type": "Feature",
      "geometry": {
        "type": "Point",
        "coordinates": [
          -0.2140768,
          51.4603329
        ]
      },
      "properties": {
        "name": "PureGym",
        "address": "",
        "postcode": "",
        "sport": ""
      }
    },
    {
      "type": "Feature",
      "geometry": {
        "type": "Point",
        "coordinates": [
          -0.3850661,
          51.5954229
        ]
      },
      "properties": {
        "name": "Fitness First",
        "address": "",
        "postcode": "",
        "sport": ""
      }
    },
    {
      "type": "Feature",
      "geometry": {
        "type": "Point",
        "coordinates": [
          0.0008007,
          51.5422991
        ]
      },
      "properties": {
        "name": "PureGym",
        "address": "The Mall",
        "postcode": "",
        "sport": ""
      }
    },
    {
      "type": "Feature",
      "geometry": {
        "type": "Point",
        "coordinates": [
          -0.148419,
          51.5586745
        ]
      },
      "properties": {
        "name": "Fit Shape Studio",
        "address": "Grove Terrace 31",
        "postcode": "NW5 1PL",
        "sport": ""
      }
    },
    {
      "type": "Feature",
      "geometry": {
        "type": "Point",
        "coordinates": [
          -0.1560083,
          51.5131807
        ]
      },
      "properties": {
        "name": "Mayfair Health Club",
        "address": "",
        "postcode": "",
        "sport": ""
      }
    },
    {
      "type": "Feature",
      "geometry": {
        "type": "Point",
        "coordinates": [
          -0.0097611,
          51.4627067
        ]
      },
      "properties": {
        "name": "PureGym",
        "address": "Lewisham High Street 67-71a",
        "postcode": "SE13 5JX",
        "sport": ""
      }
    },
    {
      "type": "Feature",
      "geometry": {
        "type": "Point",
        "coordinates": [
          -0.0591727,
          51.5885007
        ]
      },
      "properties": {
        "name": "The Gym",
        "address": "",
        "postcode": "",
        "sport": ""
      }
    },
    {
      "type": "Feature",
      "geometry": {
        "type": "Point",
        "coordinates": [
          -0.1114189,
          51.5517187
        ]
      },
      "properties": {
        "name": "BodyJunkies",
        "address": "Holloway Road 259",
        "postcode": "",
        "sport": ""
      }
    },
    {
      "type": "Feature",
      "geometry": {
        "type": "Point",
        "coordinates": [
          -0.0914835,
          51.5096752
        ]
      },
      "properties": {
        "name": "Nuffield Health Fitness & Wellbeing",
        "address": "Cousin Lane",
        "postcode": "EC4R 3XJ",
        "sport": ""
      }
    },
    {
      "type": "Feature",
      "geometry": {
        "type": "Point",
        "coordinates": [
          -0.0925666,
          51.5105644
        ]
      },
      "properties": {
        "name": "F45 Training",
        "address": "Upper Thames Street 72",
        "postcode": "EC4R 3TA",
        "sport": ""
      }
    },
    {
      "type": "Feature",
      "geometry": {
        "type": "Point",
        "coordinates": [
          -0.1010837,
          51.3729405
        ]
      },
      "properties": {
        "name": "Virgin Active",
        "address": "",
        "postcode": "",
        "sport": ""
      }
    },
    {
      "type": "Feature",
      "geometry": {
        "type": "Point",
        "coordinates": [
          -0.0839076,
          51.5235775
        ]
      },
      "properties": {
        "name": "The Vault Gym",
        "address": "",
        "postcode": "",
        "sport": ""
      }
    },
    {
      "type": "Feature",
      "geometry": {
        "type": "Point",
        "coordinates": [
          0.0682957,
          51.5068236
        ]
      },
      "properties": {
        "name": "Aqua East",
        "address": "",
        "postcode": "",
        "sport": ""
      }
    },
    {
      "type": "Feature",
      "geometry": {
        "type": "Point",
        "coordinates": [
          -0.1866038,
          51.4392719
        ]
      },
      "properties": {
        "name": "Enhance Fitness",
        "address": "Garratt Lane 593",
        "postcode": "SW18 4ST",
        "sport": ""
      }
    },
    {
      "type": "Feature",
      "geometry": {
        "type": "Point",
        "coordinates": [
          -0.2045963,
          51.4197623
        ]
      },
      "properties": {
        "name": "Nuffield Health Fitness & Wellbeing",
        "address": "The Broadway 37",
        "postcode": "SW19 1QB",
        "sport": "fitness;swimming"
      }
    },
    {
      "type": "Feature",
      "geometry": {
        "type": "Point",
        "coordinates": [
          -0.1782334,
          51.5565622
        ]
      },
      "properties": {
        "name": "Heartcore Hampstead",
        "address": "Hampstead High Street 50",
        "postcode": "NW3 1QG",
        "sport": "pilates"
      }
    },
    {
      "type": "Feature",
      "geometry": {
        "type": "Point",
        "coordinates": [
          -0.100554,
          51.371263
        ]
      },
      "properties": {
        "name": "F45 Training",
        "address": "High Street 70",
        "postcode": "CR0 1NA",
        "sport": ""
      }
    },
    {
      "type": "Feature",
      "geometry": {
        "type": "Point",
        "coordinates": [
          -0.0978211,
          51.3730003
        ]
      },
      "properties": {
        "name": "MYPT Therapy",
        "address": "St George's Walk 38",
        "postcode": "CR0 1YJ",
        "sport": ""
      }
    },
    {
      "type": "Feature",
      "geometry": {
        "type": "Point",
        "coordinates": [
          -0.0979385,
          51.3729865
        ]
      },
      "properties": {
        "name": "Reformer Club by MyPT",
        "address": "St George's Walk 36",
        "postcode": "CR0 1YJ",
        "sport": ""
      }
    },
    {
      "type": "Feature",
      "geometry": {
        "type": "Point",
        "coordinates": [
          -0.1153397,
          51.4644175
        ]
      },
      "properties": {
        "name": "Fitness First",
        "address": "",
        "postcode": "",
        "sport": ""
      }
    },
    {
      "type": "Feature",
      "geometry": {
        "type": "Point",
        "coordinates": [
          -0.1947233,
          51.4563514
        ]
      },
      "properties": {
        "name": "Nuffield Health Fitness & Wellbeing",
        "address": "",
        "postcode": "",
        "sport": ""
      }
    },
    {
      "type": "Feature",
      "geometry": {
        "type": "Point",
        "coordinates": [
          -0.3031612,
          51.4155435
        ]
      },
      "properties": {
        "name": "Nuffield Health Fitness & Wellbeing",
        "address": "Richmond Road",
        "postcode": "KT2 5EN",
        "sport": "fitness"
      }
    },
    {
      "type": "Feature",
      "geometry": {
        "type": "Point",
        "coordinates": [
          -0.1080958,
          51.5972343
        ]
      },
      "properties": {
        "name": "The Gym",
        "address": "",
        "postcode": "",
        "sport": ""
      }
    },
    {
      "type": "Feature",
      "geometry": {
        "type": "Point",
        "coordinates": [
          -0.0976492,
          51.5764229
        ]
      },
      "properties": {
        "name": "The Gym",
        "address": "",
        "postcode": "",
        "sport": ""
      }
    },
    {
      "type": "Feature",
      "geometry": {
        "type": "Point",
        "coordinates": [
          -0.0995108,
          51.5829818
        ]
      },
      "properties": {
        "name": "Legends Gym",
        "address": "Salisbury Promenade 6-9",
        "postcode": "N8 0RX",
        "sport": ""
      }
    },
    {
      "type": "Feature",
      "geometry": {
        "type": "Point",
        "coordinates": [
          -0.1076602,
          51.5654484
        ]
      },
      "properties": {
        "name": "The Manor LDN",
        "address": "",
        "postcode": "",
        "sport": ""
      }
    },
    {
      "type": "Feature",
      "geometry": {
        "type": "Point",
        "coordinates": [
          -0.1585197,
          51.5238603
        ]
      },
      "properties": {
        "name": "Total Chi Yoga",
        "address": "Baker Street 243",
        "postcode": "",
        "sport": "yoga"
      }
    },
    {
      "type": "Feature",
      "geometry": {
        "type": "Point",
        "coordinates": [
          -0.1250279,
          51.577059
        ]
      },
      "properties": {
        "name": "3Tribes",
        "address": "",
        "postcode": "",
        "sport": ""
      }
    },
    {
      "type": "Feature",
      "geometry": {
        "type": "Point",
        "coordinates": [
          0.0535802,
          51.4502183
        ]
      },
      "properties": {
        "name": "MMA Fitness Gym",
        "address": "Passey Place 4",
        "postcode": "",
        "sport": ""
      }
    },
    {
      "type": "Feature",
      "geometry": {
        "type": "Point",
        "coordinates": [
          0.1242021,
          51.4084247
        ]
      },
      "properties": {
        "name": "Bannatyne Health Club",
        "address": "Sandy Lane",
        "postcode": "BR5 3HY",
        "sport": ""
      }
    },
    {
      "type": "Feature",
      "geometry": {
        "type": "Point",
        "coordinates": [
          -0.1348101,
          51.5223795
        ]
      },
      "properties": {
        "name": "Fitness First",
        "address": "",
        "postcode": "",
        "sport": ""
      }
    },
    {
      "type": "Feature",
      "geometry": {
        "type": "Point",
        "coordinates": [
          -0.1053581,
          51.3805698
        ]
      },
      "properties": {
        "name": "The Gym",
        "address": "London Road 99-101",
        "postcode": "",
        "sport": ""
      }
    },
    {
      "type": "Feature",
      "geometry": {
        "type": "Point",
        "coordinates": [
          -0.1238005,
          51.5099438
        ]
      },
      "properties": {
        "name": "Fitness First",
        "address": "",
        "postcode": "",
        "sport": ""
      }
    },
    {
      "type": "Feature",
      "geometry": {
        "type": "Point",
        "coordinates": [
          -0.0840269,
          51.5185695
        ]
      },
      "properties": {
        "name": "Fitness First",
        "address": "",
        "postcode": "",
        "sport": "fitness"
      }
    },
    {
      "type": "Feature",
      "geometry": {
        "type": "Point",
        "coordinates": [
          -0.1257432,
          51.496708
        ]
      },
      "properties": {
        "name": "Bannatynes Gym",
        "address": "",
        "postcode": "",
        "sport": ""
      }
    },
    {
      "type": "Feature",
      "geometry": {
        "type": "Point",
        "coordinates": [
          -0.126699,
          51.485212
        ]
      },
      "properties": {
        "name": "The Gym",
        "address": "",
        "postcode": "",
        "sport": ""
      }
    },
    {
      "type": "Feature",
      "geometry": {
        "type": "Point",
        "coordinates": [
          -0.1417952,
          51.49757
        ]
      },
      "properties": {
        "name": "PureGym",
        "address": "Bressenden Place",
        "postcode": "SW1E 5BH",
        "sport": ""
      }
    },
    {
      "type": "Feature",
      "geometry": {
        "type": "Point",
        "coordinates": [
          -0.0418419,
          51.5321508
        ]
      },
      "properties": {
        "name": "PureGym",
        "address": "Grove Road",
        "postcode": "",
        "sport": ""
      }
    },
    {
      "type": "Feature",
      "geometry": {
        "type": "Point",
        "coordinates": [
          -0.1022917,
          51.5583114
        ]
      },
      "properties": {
        "name": "Fitness First",
        "address": "",
        "postcode": "",
        "sport": ""
      }
    },
    {
      "type": "Feature",
      "geometry": {
        "type": "Point",
        "coordinates": [
          -0.0787735,
          51.5169937
        ]
      },
      "properties": {
        "name": "Fitness First",
        "address": "",
        "postcode": "",
        "sport": ""
      }
    },
    {
      "type": "Feature",
      "geometry": {
        "type": "Point",
        "coordinates": [
          -0.0829711,
          51.5150418
        ]
      },
      "properties": {
        "name": "Fitness First",
        "address": "",
        "postcode": "",
        "sport": ""
      }
    },
    {
      "type": "Feature",
      "geometry": {
        "type": "Point",
        "coordinates": [
          -0.0862991,
          51.5116036
        ]
      },
      "properties": {
        "name": "Cyclebeat",
        "address": "Lombard Court 8",
        "postcode": "",
        "sport": ""
      }
    },
    {
      "type": "Feature",
      "geometry": {
        "type": "Point",
        "coordinates": [
          -0.1031605,
          51.5314141
        ]
      },
      "properties": {
        "name": "Anytime Fitness",
        "address": "",
        "postcode": "",
        "sport": "fitness"
      }
    },
    {
      "type": "Feature",
      "geometry": {
        "type": "Point",
        "coordinates": [
          -0.181497,
          51.5480259
        ]
      },
      "properties": {
        "name": "Virgin Active",
        "address": "",
        "postcode": "",
        "sport": "fitness"
      }
    },
    {
      "type": "Feature",
      "geometry": {
        "type": "Point",
        "coordinates": [
          -0.1226693,
          51.4882486
        ]
      },
      "properties": {
        "name": "Sleven",
        "address": "",
        "postcode": "",
        "sport": ""
      }
    },
    {
      "type": "Feature",
      "geometry": {
        "type": "Point",
        "coordinates": [
          -0.0846292,
          51.5112981
        ]
      },
      "properties": {
        "name": "Fitness First",
        "address": "",
        "postcode": "",
        "sport": ""
      }
    },
    {
      "type": "Feature",
      "geometry": {
        "type": "Point",
        "coordinates": [
          -0.3029906,
          51.5120604
        ]
      },
      "properties": {
        "name": "Nuffield Health",
        "address": "",
        "postcode": "",
        "sport": ""
      }
    },
    {
      "type": "Feature",
      "geometry": {
        "type": "Point",
        "coordinates": [
          -0.3375329,
          51.5078214
        ]
      },
      "properties": {
        "name": "The Abu Halima Centre",
        "address": "Boston Road 31",
        "postcode": "W7 3SH",
        "sport": ""
      }
    },
    {
      "type": "Feature",
      "geometry": {
        "type": "Point",
        "coordinates": [
          -0.2061844,
          51.5369788
        ]
      },
      "properties": {
        "name": "Fitness First",
        "address": "",
        "postcode": "",
        "sport": ""
      }
    },
    {
      "type": "Feature",
      "geometry": {
        "type": "Point",
        "coordinates": [
          -0.1888841,
          51.4568844
        ]
      },
      "properties": {
        "name": "F45 Training",
        "address": "",
        "postcode": "",
        "sport": ""
      }
    },
    {
      "type": "Feature",
      "geometry": {
        "type": "Point",
        "coordinates": [
          -0.1351327,
          51.5102398
        ]
      },
      "properties": {
        "name": "Akasha",
        "address": "",
        "postcode": "",
        "sport": ""
      }
    },
    {
      "type": "Feature",
      "geometry": {
        "type": "Point",
        "coordinates": [
          -0.0958811,
          51.3741299
        ]
      },
      "properties": {
        "name": "The Gym",
        "address": "George Street",
        "postcode": "CR0 1PE",
        "sport": "fitness"
      }
    },
    {
      "type": "Feature",
      "geometry": {
        "type": "Point",
        "coordinates": [
          -0.275695,
          51.4948367
        ]
      },
      "properties": {
        "name": "Virgin Active",
        "address": "",
        "postcode": "",
        "sport": ""
      }
    },
    {
      "type": "Feature",
      "geometry": {
        "type": "Point",
        "coordinates": [
          -0.1404543,
          51.4980338
        ]
      },
      "properties": {
        "name": "Fitness First",
        "address": "",
        "postcode": "",
        "sport": ""
      }
    },
    {
      "type": "Feature",
      "geometry": {
        "type": "Point",
        "coordinates": [
          0.1742966,
          51.3962541
        ]
      },
      "properties": {
        "name": "Total Fitness",
        "address": "London Road",
        "postcode": "",
        "sport": ""
      }
    },
    {
      "type": "Feature",
      "geometry": {
        "type": "Point",
        "coordinates": [
          0.1761519,
          51.5236607
        ]
      },
      "properties": {
        "name": "Origin Health & Fitness",
        "address": "",
        "postcode": "",
        "sport": "fitness"
      }
    },
    {
      "type": "Feature",
      "geometry": {
        "type": "Point",
        "coordinates": [
          -0.4116251,
          51.4460171
        ]
      },
      "properties": {
        "name": "PureGym",
        "address": "High Street",
        "postcode": "TW13 4AU",
        "sport": ""
      }
    },
    {
      "type": "Feature",
      "geometry": {
        "type": "Point",
        "coordinates": [
          -0.0903465,
          51.5246215
        ]
      },
      "properties": {
        "name": "énergie Fitness",
        "address": "Bunhill Row 60-63",
        "postcode": "EC1Y 8QD",
        "sport": ""
      }
    },
    {
      "type": "Feature",
      "geometry": {
        "type": "Point",
        "coordinates": [
          -0.1504361,
          51.5180851
        ]
      },
      "properties": {
        "name": "Third Space",
        "address": "Bulstrode Place",
        "postcode": "W1U 2HU",
        "sport": "fitness"
      }
    },
    {
      "type": "Feature",
      "geometry": {
        "type": "Point",
        "coordinates": [
          -0.0903972,
          51.5117478
        ]
      },
      "properties": {
        "name": "Virgin Active",
        "address": "Cannon Street 97",
        "postcode": "EC4N 5AE",
        "sport": "fitness"
      }
    },
    {
      "type": "Feature",
      "geometry": {
        "type": "Point",
        "coordinates": [
          -0.1411306,
          51.5205008
        ]
      },
      "properties": {
        "name": "Rumble",
        "address": "New Cavendish Street 101-105",
        "postcode": "",
        "sport": ""
      }
    },
    {
      "type": "Feature",
      "geometry": {
        "type": "Point",
        "coordinates": [
          -0.1239584,
          51.5139386
        ]
      },
      "properties": {
        "name": "Nuffield Health Fitness & Wellbeing",
        "address": "",
        "postcode": "",
        "sport": ""
      }
    },
    {
      "type": "Feature",
      "geometry": {
        "type": "Point",
        "coordinates": [
          -0.1187295,
          51.512723
        ]
      },
      "properties": {
        "name": "LA Fitness",
        "address": "",
        "postcode": "",
        "sport": ""
      }
    },
    {
      "type": "Feature",
      "geometry": {
        "type": "Point",
        "coordinates": [
          -0.1151944,
          51.5852963
        ]
      },
      "properties": {
        "name": "Trinity Fit",
        "address": "Tottenham Lane 92",
        "postcode": "",
        "sport": ""
      }
    },
    {
      "type": "Feature",
      "geometry": {
        "type": "Point",
        "coordinates": [
          -0.1582775,
          51.4362068
        ]
      },
      "properties": {
        "name": "Fitness First",
        "address": "Balham High Road 279-, 289-291",
        "postcode": "SW17 7BA",
        "sport": ""
      }
    },
    {
      "type": "Feature",
      "geometry": {
        "type": "Point",
        "coordinates": [
          -0.1016518,
          51.5366248
        ]
      },
      "properties": {
        "name": "MoreYoga",
        "address": "Essex Road 21",
        "postcode": "N1 2SA",
        "sport": "yoga"
      }
    },
    {
      "type": "Feature",
      "geometry": {
        "type": "Point",
        "coordinates": [
          -0.1905766,
          51.5308272
        ]
      },
      "properties": {
        "name": "Paddington Recreation Ground Fitness Suite",
        "address": "",
        "postcode": "",
        "sport": ""
      }
    },
    {
      "type": "Feature",
      "geometry": {
        "type": "Point",
        "coordinates": [
          -0.0807859,
          51.5175023
        ]
      },
      "properties": {
        "name": "Fitness First",
        "address": "",
        "postcode": "",
        "sport": ""
      }
    },
    {
      "type": "Feature",
      "geometry": {
        "type": "Point",
        "coordinates": [
          -0.0900473,
          51.5256515
        ]
      },
      "properties": {
        "name": "Gym Box",
        "address": "",
        "postcode": "",
        "sport": ""
      }
    },
    {
      "type": "Feature",
      "geometry": {
        "type": "Point",
        "coordinates": [
          -0.1128196,
          51.5740223
        ]
      },
      "properties": {
        "name": "N4 workout",
        "address": "Ferme Park Road 19",
        "postcode": "N4 4DS",
        "sport": ""
      }
    },
    {
      "type": "Feature",
      "geometry": {
        "type": "Point",
        "coordinates": [
          -0.1225604,
          51.5367464
        ]
      },
      "properties": {
        "name": "Frame",
        "address": "York Way 1",
        "postcode": "N1C 4AS",
        "sport": ""
      }
    },
    {
      "type": "Feature",
      "geometry": {
        "type": "Point",
        "coordinates": [
          -0.3298671,
          51.4496638
        ]
      },
      "properties": {
        "name": "Anytime Fitness",
        "address": "London Road",
        "postcode": "",
        "sport": ""
      }
    },
    {
      "type": "Feature",
      "geometry": {
        "type": "Point",
        "coordinates": [
          -0.3301083,
          51.4453396
        ]
      },
      "properties": {
        "name": "PureGym",
        "address": "Heath Road 1",
        "postcode": "TW1 4AW",
        "sport": ""
      }
    },
    {
      "type": "Feature",
      "geometry": {
        "type": "Point",
        "coordinates": [
          -0.1297903,
          51.4328685
        ]
      },
      "properties": {
        "name": "Virgin Active",
        "address": "Ockley Road 20",
        "postcode": "SW16 1UB",
        "sport": ""
      }
    },
    {
      "type": "Feature",
      "geometry": {
        "type": "Point",
        "coordinates": [
          -0.0974636,
          51.5178552
        ]
      },
      "properties": {
        "name": "Virgin Active",
        "address": "Aldersgate Street 200",
        "postcode": "EC1A 4HD",
        "sport": ""
      }
    },
    {
      "type": "Feature",
      "geometry": {
        "type": "Point",
        "coordinates": [
          -0.0147604,
          51.4677578
        ]
      },
      "properties": {
        "name": "Silkworks Gym",
        "address": "",
        "postcode": "",
        "sport": "fitness"
      }
    },
    {
      "type": "Feature",
      "geometry": {
        "type": "Point",
        "coordinates": [
          -0.0771143,
          51.5145187
        ]
      },
      "properties": {
        "name": "PureGym",
        "address": "",
        "postcode": "",
        "sport": "fitness"
      }
    },
    {
      "type": "Feature",
      "geometry": {
        "type": "Point",
        "coordinates": [
          -0.3656264,
          51.4145964
        ]
      },
      "properties": {
        "name": "Curves",
        "address": "",
        "postcode": "",
        "sport": ""
      }
    },
    {
      "type": "Feature",
      "geometry": {
        "type": "Point",
        "coordinates": [
          -0.058822,
          51.4178016
        ]
      },
      "properties": {
        "name": "Temple of Strength",
        "address": "High Street 21",
        "postcode": "",
        "sport": ""
      }
    },
    {
      "type": "Feature",
      "geometry": {
        "type": "Point",
        "coordinates": [
          -0.1171642,
          51.4764349
        ]
      },
      "properties": {
        "name": "The Gym",
        "address": "Lett Road 15",
        "postcode": "SW9 0HP",
        "sport": ""
      }
    },
    {
      "type": "Feature",
      "geometry": {
        "type": "Point",
        "coordinates": [
          -0.0562303,
          51.427545
        ]
      },
      "properties": {
        "name": "PureGym",
        "address": "Kirkdale 291",
        "postcode": "SE26 4QD",
        "sport": ""
      }
    },
    {
      "type": "Feature",
      "geometry": {
        "type": "Point",
        "coordinates": [
          -0.0810842,
          51.6486274
        ]
      },
      "properties": {
        "name": "Nuffield Health Fitness & Wellbeing",
        "address": "Sydney Road 52",
        "postcode": "EN2 6SZ",
        "sport": ""
      }
    },
    {
      "type": "Feature",
      "geometry": {
        "type": "Point",
        "coordinates": [
          -0.0614637,
          51.4940378
        ]
      },
      "properties": {
        "name": "PureGym",
        "address": "",
        "postcode": "",
        "sport": ""
      }
    },
    {
      "type": "Feature",
      "geometry": {
        "type": "Point",
        "coordinates": [
          -0.1918374,
          51.5369557
        ]
      },
      "properties": {
        "name": "énergie fitness",
        "address": "Kilburn High Road 34a-36",
        "postcode": "NW6 5UA",
        "sport": ""
      }
    },
    {
      "type": "Feature",
      "geometry": {
        "type": "Point",
        "coordinates": [
          -0.0983287,
          51.5172018
        ]
      },
      "properties": {
        "name": "PureGym",
        "address": "Little Britain 20",
        "postcode": "EC1A 7DH",
        "sport": ""
      }
    },
    {
      "type": "Feature",
      "geometry": {
        "type": "Point",
        "coordinates": [
          -0.1315226,
          51.4756976
        ]
      },
      "properties": {
        "name": "PureGym",
        "address": "",
        "postcode": "",
        "sport": ""
      }
    },
    {
      "type": "Feature",
      "geometry": {
        "type": "Point",
        "coordinates": [
          -0.1074707,
          51.5629013
        ]
      },
      "properties": {
        "name": "PureGym",
        "address": "",
        "postcode": "",
        "sport": "gym"
      }
    },
    {
      "type": "Feature",
      "geometry": {
        "type": "Point",
        "coordinates": [
          -0.1453889,
          51.5539656
        ]
      },
      "properties": {
        "name": "PureGym",
        "address": "",
        "postcode": "",
        "sport": "fitness"
      }
    },
    {
      "type": "Feature",
      "geometry": {
        "type": "Point",
        "coordinates": [
          -0.1133519,
          51.5263153
        ]
      },
      "properties": {
        "name": "Ozone Health and Fitness Club",
        "address": "",
        "postcode": "WC1X 9HX",
        "sport": ""
      }
    },
    {
      "type": "Feature",
      "geometry": {
        "type": "Point",
        "coordinates": [
          -0.2565785,
          51.5915561
        ]
      },
      "properties": {
        "name": "The Gym",
        "address": "",
        "postcode": "",
        "sport": ""
      }
    },
    {
      "type": "Feature",
      "geometry": {
        "type": "Point",
        "coordinates": [
          -0.126788,
          51.5821144
        ]
      },
      "properties": {
        "name": "Rise Crouch End",
        "address": "Park Road 86",
        "postcode": "N8 8JQ",
        "sport": "fitness;exercise;personal_training"
      }
    },
    {
      "type": "Feature",
      "geometry": {
        "type": "Point",
        "coordinates": [
          -0.1222979,
          51.5675675
        ]
      },
      "properties": {
        "name": "Mode Personal Training",
        "address": "Hornsey Road 490",
        "postcode": "",
        "sport": ""
      }
    },
    {
      "type": "Feature",
      "geometry": {
        "type": "Point",
        "coordinates": [
          -0.0104501,
          51.5739433
        ]
      },
      "properties": {
        "name": "Leyton Gym",
        "address": "",
        "postcode": "",
        "sport": ""
      }
    },
    {
      "type": "Feature",
      "geometry": {
        "type": "Point",
        "coordinates": [
          -0.1134454,
          51.5520698
        ]
      },
      "properties": {
        "name": "Better Gym Holloway",
        "address": "Hornsey Street 5-7",
        "postcode": "",
        "sport": "gym"
      }
    },
    {
      "type": "Feature",
      "geometry": {
        "type": "Point",
        "coordinates": [
          -0.2185744,
          51.5336696
        ]
      },
      "properties": {
        "name": "Ellis Stockwell",
        "address": "Chamberlayne Road 69",
        "postcode": "NW10 3ND",
        "sport": ""
      }
    },
    {
      "type": "Feature",
      "geometry": {
        "type": "Point",
        "coordinates": [
          -0.1967753,
          51.433446
        ]
      },
      "properties": {
        "name": "Bounce Gym",
        "address": "",
        "postcode": "",
        "sport": "Gym, Rehab, Chiro, Osteo, Physio, Massage,"
      }
    },
    {
      "type": "Feature",
      "geometry": {
        "type": "Point",
        "coordinates": [
          -0.1622267,
          51.6431249
        ]
      },
      "properties": {
        "name": "Beyond Move",
        "address": "Cat Hill 9",
        "postcode": "",
        "sport": "pilates"
      }
    },
    {
      "type": "Feature",
      "geometry": {
        "type": "Point",
        "coordinates": [
          -0.1470397,
          51.5397174
        ]
      },
      "properties": {
        "name": "Triyoga",
        "address": "Jamestown Road 57",
        "postcode": "NW1 7DB",
        "sport": "yoga"
      }
    },
    {
      "type": "Feature",
      "geometry": {
        "type": "Point",
        "coordinates": [
          -0.2147714,
          51.5258756
        ]
      },
      "properties": {
        "name": "Anytime Fitness",
        "address": "Ladbroke Grove 332",
        "postcode": "W10 5AD",
        "sport": ""
      }
    },
    {
      "type": "Feature",
      "geometry": {
        "type": "Point",
        "coordinates": [
          -0.1797374,
          51.5423227
        ]
      },
      "properties": {
        "name": "Performance RX",
        "address": "Fairfax Road 79-81",
        "postcode": "",
        "sport": ""
      }
    },
    {
      "type": "Feature",
      "geometry": {
        "type": "Point",
        "coordinates": [
          -0.1457199,
          51.5769092
        ]
      },
      "properties": {
        "name": "Alex Jordan Personal Training",
        "address": "Archway Road 285",
        "postcode": "",
        "sport": ""
      }
    },
    {
      "type": "Feature",
      "geometry": {
        "type": "Point",
        "coordinates": [
          -0.1235852,
          51.5092527
        ]
      },
      "properties": {
        "name": "Bootcamp Pilates",
        "address": "Strand 55",
        "postcode": "",
        "sport": ""
      }
    },
    {
      "type": "Feature",
      "geometry": {
        "type": "Point",
        "coordinates": [
          0.0385973,
          51.5023408
        ]
      },
      "properties": {
        "name": "Connaught Heights Gym",
        "address": "2 Agnes George Walk",
        "postcode": "",
        "sport": "fitness"
      }
    },
    {
      "type": "Feature",
      "geometry": {
        "type": "Point",
        "coordinates": [
          -0.3543601,
          51.5641837
        ]
      },
      "properties": {
        "name": "MBA Fitness",
        "address": "",
        "postcode": "",
        "sport": "judo"
      }
    },
    {
      "type": "Feature",
      "geometry": {
        "type": "Point",
        "coordinates": [
          -0.1929056,
          51.4562521
        ]
      },
      "properties": {
        "name": "Orange Theory Fitness",
        "address": "Garratt Lane 8",
        "postcode": "",
        "sport": ""
      }
    },
    {
      "type": "Feature",
      "geometry": {
        "type": "Point",
        "coordinates": [
          -0.1637282,
          51.4538804
        ]
      },
      "properties": {
        "name": "Four Sides",
        "address": "",
        "postcode": "",
        "sport": ""
      }
    },
    {
      "type": "Feature",
      "geometry": {
        "type": "Point",
        "coordinates": [
          -0.01712,
          51.5006021
        ]
      },
      "properties": {
        "name": "Nuffield Health Fitness & Wellbeing",
        "address": "Marsh Wall 185",
        "postcode": "E14 9SH",
        "sport": ""
      }
    },
    {
      "type": "Feature",
      "geometry": {
        "type": "Point",
        "coordinates": [
          -0.1788551,
          51.415731
        ]
      },
      "properties": {
        "name": "The Gym",
        "address": "",
        "postcode": "",
        "sport": ""
      }
    },
    {
      "type": "Feature",
      "geometry": {
        "type": "Point",
        "coordinates": [
          0.0091594,
          51.5631722
        ]
      },
      "properties": {
        "name": "Studio M",
        "address": "2",
        "postcode": "",
        "sport": "pilates"
      }
    },
    {
      "type": "Feature",
      "geometry": {
        "type": "Point",
        "coordinates": [
          -0.1859564,
          51.5947851
        ]
      },
      "properties": {
        "name": "PureGym",
        "address": "",
        "postcode": "",
        "sport": ""
      }
    },
    {
      "type": "Feature",
      "geometry": {
        "type": "Point",
        "coordinates": [
          -0.1034369,
          51.4914827
        ]
      },
      "properties": {
        "name": "Snap Fitness",
        "address": "",
        "postcode": "",
        "sport": ""
      }
    },
    {
      "type": "Feature",
      "geometry": {
        "type": "Point",
        "coordinates": [
          -0.098711,
          51.4988049
        ]
      },
      "properties": {
        "name": "Boxing Gym",
        "address": "",
        "postcode": "",
        "sport": ""
      }
    },
    {
      "type": "Feature",
      "geometry": {
        "type": "Point",
        "coordinates": [
          -0.0171698,
          51.4661794
        ]
      },
      "properties": {
        "name": "The Gym",
        "address": "",
        "postcode": "",
        "sport": ""
      }
    },
    {
      "type": "Feature",
      "geometry": {
        "type": "Point",
        "coordinates": [
          -0.1060532,
          51.4380782
        ]
      },
      "properties": {
        "name": "Anytime Fitness",
        "address": "Norwood Road",
        "postcode": "SE27 9AW",
        "sport": ""
      }
    },
    {
      "type": "Feature",
      "geometry": {
        "type": "Point",
        "coordinates": [
          -0.125282,
          51.5133603
        ]
      },
      "properties": {
        "name": "Pineapple studios",
        "address": "Langley Street 16",
        "postcode": "",
        "sport": ""
      }
    },
    {
      "type": "Feature",
      "geometry": {
        "type": "Point",
        "coordinates": [
          -0.2298271,
          51.5703763
        ]
      },
      "properties": {
        "name": "The Gym",
        "address": "Staples Corner",
        "postcode": "NW2 6LW",
        "sport": ""
      }
    },
    {
      "type": "Feature",
      "geometry": {
        "type": "Point",
        "coordinates": [
          -0.088064,
          51.5174713
        ]
      },
      "properties": {
        "name": "Light Centre Moorgate",
        "address": "London Wall 114",
        "postcode": "EC2M 5QA",
        "sport": "yoga;pilates"
      }
    },
    {
      "type": "Feature",
      "geometry": {
        "type": "Point",
        "coordinates": [
          -0.2700824,
          51.489173
        ]
      },
      "properties": {
        "name": "West4 Gym",
        "address": "",
        "postcode": "",
        "sport": ""
      }
    },
    {
      "type": "Feature",
      "geometry": {
        "type": "Point",
        "coordinates": [
          -0.1971582,
          51.5344623
        ]
      },
      "properties": {
        "name": "NXT Phase",
        "address": "Canterbury Road",
        "postcode": "NW6 5ST",
        "sport": ""
      }
    },
    {
      "type": "Feature",
      "geometry": {
        "type": "Point",
        "coordinates": [
          -0.0326358,
          51.5442108
        ]
      },
      "properties": {
        "name": "My Local Pilates",
        "address": "Cadogan Terrace",
        "postcode": "E9 5EG",
        "sport": "pilates"
      }
    },
    {
      "type": "Feature",
      "geometry": {
        "type": "Point",
        "coordinates": [
          -0.0326753,
          51.5444064
        ]
      },
      "properties": {
        "name": "Victoria Park Fitness",
        "address": "Cadogan Terrace",
        "postcode": "E9 5EG",
        "sport": ""
      }
    },
    {
      "type": "Feature",
      "geometry": {
        "type": "Point",
        "coordinates": [
          0.0982701,
          51.5989204
        ]
      },
      "properties": {
        "name": "Studio23 Gym",
        "address": "Forest Road Unit 4",
        "postcode": "IG6 3HL",
        "sport": ""
      }
    },
    {
      "type": "Feature",
      "geometry": {
        "type": "Point",
        "coordinates": [
          0.100796,
          51.5983396
        ]
      },
      "properties": {
        "name": "Syngergy Fitness",
        "address": "Forest Road",
        "postcode": "IG6 3HJ",
        "sport": ""
      }
    },
    {
      "type": "Feature",
      "geometry": {
        "type": "Point",
        "coordinates": [
          -0.0023253,
          51.6075761
        ]
      },
      "properties": {
        "name": "The Fitness Space",
        "address": "",
        "postcode": "",
        "sport": ""
      }
    },
    {
      "type": "Feature",
      "geometry": {
        "type": "Point",
        "coordinates": [
          0.1737262,
          51.5835389
        ]
      },
      "properties": {
        "name": "Iron Phoenix CrossFit",
        "address": "Brooklands Approach Unit 3",
        "postcode": "RM1 1DX",
        "sport": ""
      }
    },
    {
      "type": "Feature",
      "geometry": {
        "type": "Point",
        "coordinates": [
          -0.1268666,
          51.6332566
        ]
      },
      "properties": {
        "name": "ProtoFit",
        "address": "Dennis Parade 9",
        "postcode": "N14 6AA",
        "sport": "fitness"
      }
    },
    {
      "type": "Feature",
      "geometry": {
        "type": "Point",
        "coordinates": [
          -0.036755,
          51.5124534
        ]
      },
      "properties": {
        "name": "PureGym",
        "address": "Commercial Road 600",
        "postcode": "E14 7LB",
        "sport": ""
      }
    },
    {
      "type": "Feature",
      "geometry": {
        "type": "Point",
        "coordinates": [
          -0.1372568,
          51.523281
        ]
      },
      "properties": {
        "name": "F45 Training",
        "address": "Tottenham Court Road 114-115",
        "postcode": "",
        "sport": ""
      }
    },
    {
      "type": "Feature",
      "geometry": {
        "type": "Point",
        "coordinates": [
          0.0038018,
          51.4585192
        ]
      },
      "properties": {
        "name": "Evolve Fitness Studio",
        "address": "Lee High Road 282",
        "postcode": "SE13 5PJ",
        "sport": ""
      }
    },
    {
      "type": "Feature",
      "geometry": {
        "type": "Point",
        "coordinates": [
          -0.1860816,
          51.4359635
        ]
      },
      "properties": {
        "name": "Beattitude",
        "address": "Garratt Lane 669",
        "postcode": "SW17 0PB",
        "sport": ""
      }
    },
    {
      "type": "Feature",
      "geometry": {
        "type": "Point",
        "coordinates": [
          -0.1384983,
          51.5125528
        ]
      },
      "properties": {
        "name": "Triyoga",
        "address": "Kingly Court",
        "postcode": "",
        "sport": "fitness;yoga"
      }
    },
    {
      "type": "Feature",
      "geometry": {
        "type": "Point",
        "coordinates": [
          -0.0189162,
          51.4471154
        ]
      },
      "properties": {
        "name": "PureGym",
        "address": "",
        "postcode": "",
        "sport": ""
      }
    },
    {
      "type": "Feature",
      "geometry": {
        "type": "Point",
        "coordinates": [
          -0.054528,
          51.5474134
        ]
      },
      "properties": {
        "name": "Paper Dress Yoga",
        "address": "Mare Street 352",
        "postcode": "E8 1HR",
        "sport": "yoga"
      }
    },
    {
      "type": "Feature",
      "geometry": {
        "type": "Point",
        "coordinates": [
          -0.1157078,
          51.3565866
        ]
      },
      "properties": {
        "name": "Nuffield Health Fitness & Wellbeing",
        "address": "Purley Way 619",
        "postcode": "CR0 4RQ",
        "sport": ""
      }
    },
    {
      "type": "Feature",
      "geometry": {
        "type": "Point",
        "coordinates": [
          -0.0671473,
          51.4699198
        ]
      },
      "properties": {
        "name": "Yogarise",
        "address": "Rye Lane 133",
        "postcode": "SE15 4ST",
        "sport": "yoga"
      }
    },
    {
      "type": "Feature",
      "geometry": {
        "type": "Point",
        "coordinates": [
          -0.1495255,
          51.3570797
        ]
      },
      "properties": {
        "name": "énergie Fitness",
        "address": "",
        "postcode": "",
        "sport": "gym"
      }
    },
    {
      "type": "Feature",
      "geometry": {
        "type": "Point",
        "coordinates": [
          -0.1583633,
          51.5819159
        ]
      },
      "properties": {
        "name": "Clean Body Health Personal Training",
        "address": "",
        "postcode": "",
        "sport": ""
      }
    },
    {
      "type": "Feature",
      "geometry": {
        "type": "Point",
        "coordinates": [
          -0.3354554,
          51.594966
        ]
      },
      "properties": {
        "name": "The Gym",
        "address": "",
        "postcode": "",
        "sport": ""
      }
    },
    {
      "type": "Feature",
      "geometry": {
        "type": "Point",
        "coordinates": [
          -0.0815642,
          51.4182294
        ]
      },
      "properties": {
        "name": "Performance 360",
        "address": "",
        "postcode": "",
        "sport": ""
      }
    },
    {
      "type": "Feature",
      "geometry": {
        "type": "Point",
        "coordinates": [
          -0.0815923,
          51.4183226
        ]
      },
      "properties": {
        "name": "Duke McKenzie Fitness Centre",
        "address": "Victory Place",
        "postcode": "",
        "sport": ""
      }
    },
    {
      "type": "Feature",
      "geometry": {
        "type": "Point",
        "coordinates": [
          -0.2447871,
          51.6152828
        ]
      },
      "properties": {
        "name": "Anytime Fitness",
        "address": "",
        "postcode": "",
        "sport": ""
      }
    },
    {
      "type": "Feature",
      "geometry": {
        "type": "Point",
        "coordinates": [
          -0.1466354,
          51.5125258
        ]
      },
      "properties": {
        "name": "The Bath & Racquets Club",
        "address": "Brook's Mews 49",
        "postcode": "",
        "sport": ""
      }
    },
    {
      "type": "Feature",
      "geometry": {
        "type": "Point",
        "coordinates": [
          -0.2241035,
          51.4940301
        ]
      },
      "properties": {
        "name": "PureGym",
        "address": "Shepherds Bush Road 242",
        "postcode": "",
        "sport": ""
      }
    },
    {
      "type": "Feature",
      "geometry": {
        "type": "Point",
        "coordinates": [
          -0.2240935,
          51.4943546
        ]
      },
      "properties": {
        "name": "Surge",
        "address": "Shepherds Bush Road 232",
        "postcode": "",
        "sport": "fitness"
      }
    },
    {
      "type": "Feature",
      "geometry": {
        "type": "Point",
        "coordinates": [
          -0.2269452,
          51.5356178
        ]
      },
      "properties": {
        "name": "The Dojo",
        "address": "Doyle Gardens",
        "postcode": "NW10 3DA",
        "sport": ""
      }
    },
    {
      "type": "Feature",
      "geometry": {
        "type": "Point",
        "coordinates": [
          -0.0474455,
          51.5260182
        ]
      },
      "properties": {
        "name": "Neon",
        "address": "Bancroft Road 195",
        "postcode": "",
        "sport": ""
      }
    },
    {
      "type": "Feature",
      "geometry": {
        "type": "Point",
        "coordinates": [
          -0.0076221,
          51.5422583
        ]
      },
      "properties": {
        "name": "Gymbox",
        "address": "",
        "postcode": "",
        "sport": ""
      }
    },
    {
      "type": "Feature",
      "geometry": {
        "type": "Point",
        "coordinates": [
          -0.117797,
          51.5486582
        ]
      },
      "properties": {
        "name": "More Yoga",
        "address": "",
        "postcode": "",
        "sport": ""
      }
    },
    {
      "type": "Feature",
      "geometry": {
        "type": "Point",
        "coordinates": [
          -0.2899219,
          51.5539196
        ]
      },
      "properties": {
        "name": "Stonebridge Boxing Club",
        "address": "High Road Wembley 388",
        "postcode": "HA9 6AR",
        "sport": "boxing"
      }
    },
    {
      "type": "Feature",
      "geometry": {
        "type": "Point",
        "coordinates": [
          -0.0897478,
          51.5104221
        ]
      },
      "properties": {
        "name": "Gymbox",
        "address": "Suffolk Lane 1",
        "postcode": "EC4R 0AT",
        "sport": ""
      }
    },
    {
      "type": "Feature",
      "geometry": {
        "type": "Point",
        "coordinates": [
          0.0251727,
          51.4873596
        ]
      },
      "properties": {
        "name": "Anytime Fitness",
        "address": "",
        "postcode": "",
        "sport": ""
      }
    },
    {
      "type": "Feature",
      "geometry": {
        "type": "Point",
        "coordinates": [
          -0.0980882,
          51.3731754
        ]
      },
      "properties": {
        "name": "MYPT Cycle",
        "address": "St George's Walk 35",
        "postcode": "CR0 1YL",
        "sport": "cycling"
      }
    },
    {
      "type": "Feature",
      "geometry": {
        "type": "Point",
        "coordinates": [
          -0.1680544,
          51.4608214
        ]
      },
      "properties": {
        "name": "Psycle",
        "address": "",
        "postcode": "",
        "sport": "bicycle"
      }
    },
    {
      "type": "Feature",
      "geometry": {
        "type": "Point",
        "coordinates": [
          0.0562133,
          51.4506194
        ]
      },
      "properties": {
        "name": "Snap Fitness",
        "address": "",
        "postcode": "",
        "sport": ""
      }
    },
    {
      "type": "Feature",
      "geometry": {
        "type": "Point",
        "coordinates": [
          -0.0912036,
          51.5033729
        ]
      },
      "properties": {
        "name": "King’s Sport & Wellness London Bridge",
        "address": "",
        "postcode": "",
        "sport": ""
      }
    },
    {
      "type": "Feature",
      "geometry": {
        "type": "Point",
        "coordinates": [
          -0.025558,
          51.5440975
        ]
      },
      "properties": {
        "name": "Yours",
        "address": "Prince Edward Road 3",
        "postcode": "E9 5LX",
        "sport": ""
      }
    },
    {
      "type": "Feature",
      "geometry": {
        "type": "Point",
        "coordinates": [
          -0.1651164,
          51.5226537
        ]
      },
      "properties": {
        "name": "Indaba Yoga",
        "address": "Hayes Place 18",
        "postcode": "",
        "sport": ""
      }
    },
    {
      "type": "Feature",
      "geometry": {
        "type": "Point",
        "coordinates": [
          -0.0259487,
          51.491812
        ]
      },
      "properties": {
        "name": "Odyssey Gym",
        "address": "",
        "postcode": "",
        "sport": ""
      }
    },
    {
      "type": "Feature",
      "geometry": {
        "type": "Point",
        "coordinates": [
          -0.1498682,
          51.3606556
        ]
      },
      "properties": {
        "name": "Snap Fitness",
        "address": "Manor Road 93b",
        "postcode": "SM6 0AT",
        "sport": ""
      }
    },
    {
      "type": "Feature",
      "geometry": {
        "type": "Point",
        "coordinates": [
          -0.1403916,
          51.5177202
        ]
      },
      "properties": {
        "name": "FS8",
        "address": "Great Titchfield Street 35",
        "postcode": "",
        "sport": ""
      }
    },
    {
      "type": "Feature",
      "geometry": {
        "type": "Point",
        "coordinates": [
          -0.0112259,
          51.5406075
        ]
      },
      "properties": {
        "name": "London Aquatics Centre",
        "address": "",
        "postcode": "",
        "sport": ""
      }
    },
    {
      "type": "Feature",
      "geometry": {
        "type": "Point",
        "coordinates": [
          -0.141201,
          51.5195758
        ]
      },
      "properties": {
        "name": "Ten Health & Fitness",
        "address": "Great Titchfield Street 83",
        "postcode": "",
        "sport": "fitness"
      }
    },
    {
      "type": "Feature",
      "geometry": {
        "type": "Point",
        "coordinates": [
          0.027095,
          51.4996144
        ]
      },
      "properties": {
        "name": "Royal Wharf Clubhouse",
        "address": "Royal Crest Avenue",
        "postcode": "E16 2TF",
        "sport": "swimming;fitness"
      }
    },
    {
      "type": "Feature",
      "geometry": {
        "type": "Point",
        "coordinates": [
          -0.1441928,
          51.5168137
        ]
      },
      "properties": {
        "name": "Barrecore",
        "address": "Cavendish Square 6",
        "postcode": "",
        "sport": ""
      }
    },
    {
      "type": "Feature",
      "geometry": {
        "type": "Point",
        "coordinates": [
          -0.3685871,
          51.5790276
        ]
      },
      "properties": {
        "name": "Rayners Mead Outdoor Gym",
        "address": "",
        "postcode": "",
        "sport": ""
      }
    },
    {
      "type": "Feature",
      "geometry": {
        "type": "Point",
        "coordinates": [
          -0.1570999,
          51.5143057
        ]
      },
      "properties": {
        "name": "The Gym Way",
        "address": "Bryanston Street 21",
        "postcode": "",
        "sport": "fitness"
      }
    },
    {
      "type": "Feature",
      "geometry": {
        "type": "Point",
        "coordinates": [
          -0.068937,
          51.5145239
        ]
      },
      "properties": {
        "name": "12 x 3",
        "address": "Alie Street 76",
        "postcode": "E1 8PZ",
        "sport": "boxing"
      }
    },
    {
      "type": "Feature",
      "geometry": {
        "type": "Point",
        "coordinates": [
          -0.2289452,
          51.4097367
        ]
      },
      "properties": {
        "name": "Anytime Fitness",
        "address": "Coombe Lane 16",
        "postcode": "SW20 8ND",
        "sport": ""
      }
    },
    {
      "type": "Feature",
      "geometry": {
        "type": "Point",
        "coordinates": [
          -0.1253624,
          51.5089528
        ]
      },
      "properties": {
        "name": "powerhousefitness.co.uk",
        "address": "",
        "postcode": "",
        "sport": ""
      }
    },
    {
      "type": "Feature",
      "geometry": {
        "type": "Point",
        "coordinates": [
          -0.2011137,
          51.3640442
        ]
      },
      "properties": {
        "name": "The Saraswati Yoga Studio",
        "address": "Robin Hood Lane 122",
        "postcode": "SM1 2SE",
        "sport": "yoga"
      }
    },
    {
      "type": "Feature",
      "geometry": {
        "type": "Point",
        "coordinates": [
          -0.182086,
          51.4854197
        ]
      },
      "properties": {
        "name": "Anytime Fitness",
        "address": "Fulham Road 222-224",
        "postcode": "",
        "sport": ""
      }
    },
    {
      "type": "Feature",
      "geometry": {
        "type": "Point",
        "coordinates": [
          -0.1550416,
          51.5171172
        ]
      },
      "properties": {
        "name": "KOBOX",
        "address": "Baker Street 16",
        "postcode": "",
        "sport": "boxing"
      }
    },
    {
      "type": "Feature",
      "geometry": {
        "type": "Point",
        "coordinates": [
          -0.0057857,
          51.5346
        ]
      },
      "properties": {
        "name": "Stratford Padel Club",
        "address": "High Street 221",
        "postcode": "E15 2AE",
        "sport": "padel_tennis"
      }
    },
    {
      "type": "Feature",
      "geometry": {
        "type": "Point",
        "coordinates": [
          -0.1333071,
          51.5084779
        ]
      },
      "properties": {
        "name": "PureGym",
        "address": "",
        "postcode": "",
        "sport": ""
      }
    },
    {
      "type": "Feature",
      "geometry": {
        "type": "Point",
        "coordinates": [
          -0.1561308,
          51.5186275
        ]
      },
      "properties": {
        "name": "Fitness First",
        "address": "Baker Street 55",
        "postcode": "",
        "sport": ""
      }
    },
    {
      "type": "Feature",
      "geometry": {
        "type": "Point",
        "coordinates": [
          0.0979931,
          51.373489
        ]
      },
      "properties": {
        "name": "Anytime Fitness",
        "address": "High Street 313",
        "postcode": "BR6 0NN",
        "sport": "gym"
      }
    },
    {
      "type": "Feature",
      "geometry": {
        "type": "Point",
        "coordinates": [
          0.2196488,
          51.4451159
        ]
      },
      "properties": {
        "name": "The Gym",
        "address": "",
        "postcode": "",
        "sport": ""
      }
    },
    {
      "type": "Feature",
      "geometry": {
        "type": "Point",
        "coordinates": [
          -0.1612214,
          51.5220326
        ]
      },
      "properties": {
        "name": "PureGym",
        "address": "Balcombe Street 7",
        "postcode": "",
        "sport": ""
      }
    },
    {
      "type": "Feature",
      "geometry": {
        "type": "Point",
        "coordinates": [
          -0.2129191,
          51.4097235
        ]
      },
      "properties": {
        "name": "Wimbledon Fitness Centre",
        "address": "Kingston Road 353",
        "postcode": "SW20 8JX",
        "sport": ""
      }
    },
    {
      "type": "Feature",
      "geometry": {
        "type": "Point",
        "coordinates": [
          -0.1177153,
          51.5129023
        ]
      },
      "properties": {
        "name": "King's Sport Strand Gym",
        "address": "",
        "postcode": "",
        "sport": ""
      }
    },
    {
      "type": "Feature",
      "geometry": {
        "type": "Point",
        "coordinates": [
          -0.0756769,
          51.5452144
        ]
      },
      "properties": {
        "name": "Anytime Fitness",
        "address": "Kingsland Road 568",
        "postcode": "E8 4AH",
        "sport": ""
      }
    },
    {
      "type": "Feature",
      "geometry": {
        "type": "Point",
        "coordinates": [
          -0.1711982,
          51.4687565
        ]
      },
      "properties": {
        "name": "énergie Fitness",
        "address": "",
        "postcode": "",
        "sport": ""
      }
    },
    {
      "type": "Feature",
      "geometry": {
        "type": "Point",
        "coordinates": [
          -0.2385101,
          51.4005628
        ]
      },
      "properties": {
        "name": "Ray Stevens Academy",
        "address": "",
        "postcode": "",
        "sport": "judo"
      }
    },
    {
      "type": "Feature",
      "geometry": {
        "type": "Point",
        "coordinates": [
          -0.325065,
          51.5096774
        ]
      },
      "properties": {
        "name": "Anytime Fitness",
        "address": "Broadway 77-83",
        "postcode": "W13 9BP",
        "sport": ""
      }
    },
    {
      "type": "Feature",
      "geometry": {
        "type": "Point",
        "coordinates": [
          -0.0948914,
          51.5050713
        ]
      },
      "properties": {
        "name": "F45 Training",
        "address": "",
        "postcode": "",
        "sport": ""
      }
    },
    {
      "type": "Feature",
      "geometry": {
        "type": "Point",
        "coordinates": [
          -0.1725647,
          51.5425826
        ]
      },
      "properties": {
        "name": "Swiss Cottage Leisure Centre Gym",
        "address": "",
        "postcode": "",
        "sport": ""
      }
    },
    {
      "type": "Feature",
      "geometry": {
        "type": "Point",
        "coordinates": [
          -0.1706833,
          51.5333114
        ]
      },
      "properties": {
        "name": "1 Rebel",
        "address": "St John's Wood High Street 47-49",
        "postcode": "",
        "sport": ""
      }
    },
    {
      "type": "Feature",
      "geometry": {
        "type": "Point",
        "coordinates": [
          -0.1228872,
          51.4871857
        ]
      },
      "properties": {
        "name": "F45 Training",
        "address": "",
        "postcode": "",
        "sport": ""
      }
    },
    {
      "type": "Feature",
      "geometry": {
        "type": "Point",
        "coordinates": [
          -0.1896846,
          51.5025858
        ]
      },
      "properties": {
        "name": "Virgin Active",
        "address": "Old Court Place 17a",
        "postcode": "",
        "sport": "fitness"
      }
    },
    {
      "type": "Feature",
      "geometry": {
        "type": "Point",
        "coordinates": [
          -0.3161484,
          51.5115344
        ]
      },
      "properties": {
        "name": "The Gym",
        "address": "",
        "postcode": "",
        "sport": "fitness"
      }
    },
    {
      "type": "Feature",
      "geometry": {
        "type": "Point",
        "coordinates": [
          -0.1175922,
          51.531309
        ]
      },
      "properties": {
        "name": "Anytime Fitness",
        "address": "",
        "postcode": "",
        "sport": ""
      }
    },
    {
      "type": "Feature",
      "geometry": {
        "type": "Point",
        "coordinates": [
          -0.2017608,
          51.5745142
        ]
      },
      "properties": {
        "name": "CLOSED",
        "address": "",
        "postcode": "",
        "sport": ""
      }
    },
    {
      "type": "Feature",
      "geometry": {
        "type": "Point",
        "coordinates": [
          -0.3125772,
          51.4968219
        ]
      },
      "properties": {
        "name": "Gym135 Fitness Centre",
        "address": "",
        "postcode": "",
        "sport": ""
      }
    },
    {
      "type": "Feature",
      "geometry": {
        "type": "Point",
        "coordinates": [
          -0.1823254,
          51.5350926
        ]
      },
      "properties": {
        "name": "Pilates Tonic",
        "address": "Blenheim Terrace 22a",
        "postcode": "",
        "sport": ""
      }
    },
    {
      "type": "Feature",
      "geometry": {
        "type": "Point",
        "coordinates": [
          -0.184958,
          51.537424
        ]
      },
      "properties": {
        "name": "Feel Electric",
        "address": "Boundary Road 91",
        "postcode": "",
        "sport": ""
      }
    },
    {
      "type": "Feature",
      "geometry": {
        "type": "Point",
        "coordinates": [
          -0.1468807,
          51.4831321
        ]
      },
      "properties": {
        "name": "Boom Cycle",
        "address": "Arches Lane 1-3",
        "postcode": "SW11 8AB",
        "sport": "cycling"
      }
    },
    {
      "type": "Feature",
      "geometry": {
        "type": "Point",
        "coordinates": [
          -0.0765148,
          51.5166653
        ]
      },
      "properties": {
        "name": "F45 Training",
        "address": "Middlesex Street 80",
        "postcode": "E1 7EZ",
        "sport": ""
      }
    },
    {
      "type": "Feature",
      "geometry": {
        "type": "Point",
        "coordinates": [
          -0.3443853,
          51.5806563
        ]
      },
      "properties": {
        "name": "Harrowall",
        "address": "Neptune Road",
        "postcode": "HA1 4HX",
        "sport": "climbing"
      }
    },
    {
      "type": "Feature",
      "geometry": {
        "type": "Point",
        "coordinates": [
          -0.3000871,
          51.4644858
        ]
      },
      "properties": {
        "name": "Yogahaven",
        "address": "Kew Road",
        "postcode": "TW9 2NA",
        "sport": "yoga"
      }
    },
    {
      "type": "Feature",
      "geometry": {
        "type": "Point",
        "coordinates": [
          -0.1908264,
          51.3582951
        ]
      },
      "properties": {
        "name": "Anytime Fitness",
        "address": "Brighton Road 29",
        "postcode": "SM2 5AJ",
        "sport": ""
      }
    },
    {
      "type": "Feature",
      "geometry": {
        "type": "Point",
        "coordinates": [
          -0.0382466,
          51.4907018
        ]
      },
      "properties": {
        "name": "More yoga",
        "address": "",
        "postcode": "",
        "sport": "yoga"
      }
    },
    {
      "type": "Feature",
      "geometry": {
        "type": "Point",
        "coordinates": [
          -0.1711586,
          51.5186724
        ]
      },
      "properties": {
        "name": "F45 Training",
        "address": "",
        "postcode": "",
        "sport": ""
      }
    },
    {
      "type": "Feature",
      "geometry": {
        "type": "Point",
        "coordinates": [
          -0.1809992,
          51.4653771
        ]
      },
      "properties": {
        "name": "Gym On London",
        "address": "",
        "postcode": "",
        "sport": ""
      }
    },
    {
      "type": "Feature",
      "geometry": {
        "type": "Point",
        "coordinates": [
          -0.1794621,
          51.5192567
        ]
      },
      "properties": {
        "name": "12x3 Gym",
        "address": "Sheldon Square 19",
        "postcode": "",
        "sport": "boxing"
      }
    },
    {
      "type": "Feature",
      "geometry": {
        "type": "Point",
        "coordinates": [
          -0.1257266,
          51.4698046
        ]
      },
      "properties": {
        "name": "Jetts Fitness",
        "address": "Clapham Road 330",
        "postcode": "SW9 9AP",
        "sport": "fitness"
      }
    },
    {
      "type": "Feature",
      "geometry": {
        "type": "Point",
        "coordinates": [
          -0.0805639,
          51.5102447
        ]
      },
      "properties": {
        "name": "Third Space",
        "address": "",
        "postcode": "",
        "sport": ""
      }
    },
    {
      "type": "Feature",
      "geometry": {
        "type": "Point",
        "coordinates": [
          -0.2664646,
          51.4671716
        ]
      },
      "properties": {
        "name": "The Garage Studio",
        "address": "Sheen Lane 55",
        "postcode": "SW14 8AB",
        "sport": "yoga;pilates"
      }
    },
    {
      "type": "Feature",
      "geometry": {
        "type": "Point",
        "coordinates": [
          -0.0037893,
          51.5487453
        ]
      },
      "properties": {
        "name": "More Yoga",
        "address": "Liberty Bridge Road 47",
        "postcode": "E15 1FT",
        "sport": "yoga"
      }
    },
    {
      "type": "Feature",
      "geometry": {
        "type": "Point",
        "coordinates": [
          -0.3203685,
          51.4554049
        ]
      },
      "properties": {
        "name": "Rize",
        "address": "St Margarets Road 125",
        "postcode": "TW1 1RG",
        "sport": ""
      }
    },
    {
      "type": "Feature",
      "geometry": {
        "type": "Point",
        "coordinates": [
          -0.0814449,
          51.4778293
        ]
      },
      "properties": {
        "name": "PureGym",
        "address": "Southampton Way 191-199",
        "postcode": "SE5 7EJ",
        "sport": ""
      }
    },
    {
      "type": "Feature",
      "geometry": {
        "type": "Point",
        "coordinates": [
          -0.1770084,
          51.6171164
        ]
      },
      "properties": {
        "name": "Perfect Timing Academy",
        "address": "High Road",
        "postcode": "",
        "sport": ""
      }
    },
    {
      "type": "Feature",
      "geometry": {
        "type": "Point",
        "coordinates": [
          -0.2874472,
          51.4893086
        ]
      },
      "properties": {
        "name": "Scott's Personal Training",
        "address": "",
        "postcode": "",
        "sport": "fitness"
      }
    },
    {
      "type": "Feature",
      "geometry": {
        "type": "Point",
        "coordinates": [
          -0.1875716,
          51.5166517
        ]
      },
      "properties": {
        "name": "1Rebel Bayswater",
        "address": "Porchester Road 34",
        "postcode": "",
        "sport": ""
      }
    },
    {
      "type": "Feature",
      "geometry": {
        "type": "Point",
        "coordinates": [
          -0.4055627,
          51.4442048
        ]
      },
      "properties": {
        "name": "The Gym",
        "address": "Browells Lane",
        "postcode": "",
        "sport": ""
      }
    },
    {
      "type": "Feature",
      "geometry": {
        "type": "Point",
        "coordinates": [
          -0.0720186,
          51.5132981
        ]
      },
      "properties": {
        "name": "Anytime Fitness",
        "address": "Alie Street 18",
        "postcode": "E1 8DE",
        "sport": "weightlifting;gym"
      }
    },
    {
      "type": "Feature",
      "geometry": {
        "type": "Point",
        "coordinates": [
          -0.0746818,
          51.524115
        ]
      },
      "properties": {
        "name": "Psycle",
        "address": "Whitby Street 17-23",
        "postcode": "E1 6JU",
        "sport": ""
      }
    },
    {
      "type": "Feature",
      "geometry": {
        "type": "Point",
        "coordinates": [
          -0.1951264,
          51.5157086
        ]
      },
      "properties": {
        "name": "Barrecore",
        "address": "Chepstow Road 12",
        "postcode": "",
        "sport": "fitness"
      }
    },
    {
      "type": "Feature",
      "geometry": {
        "type": "Point",
        "coordinates": [
          -0.0725149,
          51.5239673
        ]
      },
      "properties": {
        "name": "Triyoga",
        "address": "",
        "postcode": "",
        "sport": "yoga"
      }
    },
    {
      "type": "Feature",
      "geometry": {
        "type": "Point",
        "coordinates": [
          0.0265129,
          51.4892745
        ]
      },
      "properties": {
        "name": "PureGym",
        "address": "Gallions Road 7-11",
        "postcode": "SE7 7FA",
        "sport": ""
      }
    },
    {
      "type": "Feature",
      "geometry": {
        "type": "Point",
        "coordinates": [
          -0.190089,
          51.5155014
        ]
      },
      "properties": {
        "name": "Psycle",
        "address": "Westbourne Grove 37-41",
        "postcode": "",
        "sport": "cycling"
      }
    },
    {
      "type": "Feature",
      "geometry": {
        "type": "Point",
        "coordinates": [
          -0.1900803,
          51.5129341
        ]
      },
      "properties": {
        "name": "PureGym London Bayswater",
        "address": "Moscow Place 6",
        "postcode": "",
        "sport": ""
      }
    },
    {
      "type": "Feature",
      "geometry": {
        "type": "Point",
        "coordinates": [
          -0.1929999,
          51.5116978
        ]
      },
      "properties": {
        "name": "Heartcore",
        "address": "Ossington Street 57",
        "postcode": "",
        "sport": "yoga"
      }
    },
    {
      "type": "Feature",
      "geometry": {
        "type": "Point",
        "coordinates": [
          -0.1154102,
          51.3742078
        ]
      },
      "properties": {
        "name": "CroyWall Climbing Centre",
        "address": "Whitestone Way unit 7",
        "postcode": "",
        "sport": ""
      }
    },
    {
      "type": "Feature",
      "geometry": {
        "type": "Point",
        "coordinates": [
          -0.1013081,
          51.5041322
        ]
      },
      "properties": {
        "name": "Fitness4Less",
        "address": "",
        "postcode": "",
        "sport": ""
      }
    },
    {
      "type": "Feature",
      "geometry": {
        "type": "Point",
        "coordinates": [
          -0.2277275,
          51.5140924
        ]
      },
      "properties": {
        "name": "The Gym",
        "address": "Wood Lane 195",
        "postcode": "W12 7FQ",
        "sport": ""
      }
    },
    {
      "type": "Feature",
      "geometry": {
        "type": "Point",
        "coordinates": [
          -0.2264505,
          51.5138669
        ]
      },
      "properties": {
        "name": "F45 Training",
        "address": "Wood Lane 195",
        "postcode": "W12 7TQ",
        "sport": ""
      }
    },
    {
      "type": "Feature",
      "geometry": {
        "type": "Point",
        "coordinates": [
          -0.2266573,
          51.5137596
        ]
      },
      "properties": {
        "name": "Studio Lagree",
        "address": "Wood Lane 195",
        "postcode": "W12 7TQ",
        "sport": ""
      }
    },
    {
      "type": "Feature",
      "geometry": {
        "type": "Point",
        "coordinates": [
          -0.2010958,
          51.5144748
        ]
      },
      "properties": {
        "name": "Bodyism",
        "address": "Westbourne Grove 222-224",
        "postcode": "",
        "sport": "fitness"
      }
    },
    {
      "type": "Feature",
      "geometry": {
        "type": "Point",
        "coordinates": [
          0.0555622,
          51.648236
        ]
      },
      "properties": {
        "name": "Bikram Yoga Essex",
        "address": "",
        "postcode": "",
        "sport": "yoga"
      }
    },
    {
      "type": "Feature",
      "geometry": {
        "type": "Point",
        "coordinates": [
          0.0556317,
          51.6481995
        ]
      },
      "properties": {
        "name": "Peak Physique Studios",
        "address": "",
        "postcode": "",
        "sport": ""
      }
    },
    {
      "type": "Feature",
      "geometry": {
        "type": "Point",
        "coordinates": [
          -0.2038382,
          51.5145583
        ]
      },
      "properties": {
        "name": "Form Studios",
        "address": "Lonsdale Road 77a",
        "postcode": "",
        "sport": "fitness"
      }
    },
    {
      "type": "Feature",
      "geometry": {
        "type": "Point",
        "coordinates": [
          -0.2036157,
          51.5175218
        ]
      },
      "properties": {
        "name": "Powervibe Fitness Studio",
        "address": "All Saints Road 1",
        "postcode": "",
        "sport": ""
      }
    },
    {
      "type": "Feature",
      "geometry": {
        "type": "Point",
        "coordinates": [
          -0.0110237,
          51.5229849
        ]
      },
      "properties": {
        "name": "London Aesthetics & Spa",
        "address": "St Leonards Street 84",
        "postcode": "E3 3LR",
        "sport": ""
      }
    },
    {
      "type": "Feature",
      "geometry": {
        "type": "Point",
        "coordinates": [
          -0.0394312,
          51.4911763
        ]
      },
      "properties": {
        "name": "The London Fit Club",
        "address": "Yeoman Street",
        "postcode": "SE8 5ET",
        "sport": ""
      }
    },
    {
      "type": "Feature",
      "geometry": {
        "type": "Point",
        "coordinates": [
          -0.198568,
          51.4995257
        ]
      },
      "properties": {
        "name": "Core Collective",
        "address": "Phillimore Walk 45",
        "postcode": "",
        "sport": ""
      }
    },
    {
      "type": "Feature",
      "geometry": {
        "type": "Point",
        "coordinates": [
          -0.2151272,
          51.5099767
        ]
      },
      "properties": {
        "name": "Basketball court",
        "address": "",
        "postcode": "",
        "sport": ""
      }
    },
    {
      "type": "Feature",
      "geometry": {
        "type": "Point",
        "coordinates": [
          -0.1898512,
          51.5023312
        ]
      },
      "properties": {
        "name": "Body Machine",
        "address": "Kensington High Street 42-44",
        "postcode": "",
        "sport": "fitness"
      }
    },
    {
      "type": "Feature",
      "geometry": {
        "type": "Point",
        "coordinates": [
          -0.1909949,
          51.5026
        ]
      },
      "properties": {
        "name": "Barrecore",
        "address": "Kensington Church Street 18",
        "postcode": "",
        "sport": "fitness"
      }
    },
    {
      "type": "Feature",
      "geometry": {
        "type": "Point",
        "coordinates": [
          -0.1241529,
          51.5991282
        ]
      },
      "properties": {
        "name": "Flex PT",
        "address": "",
        "postcode": "",
        "sport": ""
      }
    },
    {
      "type": "Feature",
      "geometry": {
        "type": "Point",
        "coordinates": [
          -0.2873996,
          51.4861541
        ]
      },
      "properties": {
        "name": "Legends Boxing Gym",
        "address": "",
        "postcode": "",
        "sport": ""
      }
    },
    {
      "type": "Feature",
      "geometry": {
        "type": "Point",
        "coordinates": [
          -0.1914769,
          51.5011463
        ]
      },
      "properties": {
        "name": "Equinox Kensington",
        "address": "Kensington High Street 99",
        "postcode": "",
        "sport": ""
      }
    },
    {
      "type": "Feature",
      "geometry": {
        "type": "Point",
        "coordinates": [
          -0.1965701,
          51.4568811
        ]
      },
      "properties": {
        "name": "Glove Up",
        "address": "",
        "postcode": "",
        "sport": ""
      }
    },
    {
      "type": "Feature",
      "geometry": {
        "type": "Point",
        "coordinates": [
          -0.1926741,
          51.4918162
        ]
      },
      "properties": {
        "name": "Soho Gyms",
        "address": "Earl's Court Road 254",
        "postcode": "",
        "sport": "fitness"
      }
    },
    {
      "type": "Feature",
      "geometry": {
        "type": "Point",
        "coordinates": [
          -0.1922908,
          51.4889037
        ]
      },
      "properties": {
        "name": "FitStudioZ",
        "address": "Old Brompton Road 280",
        "postcode": "",
        "sport": "fitness"
      }
    },
    {
      "type": "Feature",
      "geometry": {
        "type": "Point",
        "coordinates": [
          -0.0881139,
          51.5170257
        ]
      },
      "properties": {
        "name": "PureGym",
        "address": "",
        "postcode": "",
        "sport": ""
      }
    },
    {
      "type": "Feature",
      "geometry": {
        "type": "Point",
        "coordinates": [
          -0.1191122,
          51.6063798
        ]
      },
      "properties": {
        "name": "Giants Gym",
        "address": "Myddleton Road 127-129",
        "postcode": "N22 8NG",
        "sport": ""
      }
    },
    {
      "type": "Feature",
      "geometry": {
        "type": "Point",
        "coordinates": [
          -0.307794,
          51.5139095
        ]
      },
      "properties": {
        "name": "Triyoga",
        "address": "",
        "postcode": "",
        "sport": "yoga"
      }
    },
    {
      "type": "Feature",
      "geometry": {
        "type": "Point",
        "coordinates": [
          -0.3060147,
          51.5141116
        ]
      },
      "properties": {
        "name": "Gymbox",
        "address": "",
        "postcode": "",
        "sport": ""
      }
    },
    {
      "type": "Feature",
      "geometry": {
        "type": "Point",
        "coordinates": [
          -0.0938396,
          51.5708407
        ]
      },
      "properties": {
        "name": "The Gym",
        "address": "Woodberry Down",
        "postcode": "N4 2TG",
        "sport": "gym"
      }
    },
    {
      "type": "Feature",
      "geometry": {
        "type": "Point",
        "coordinates": [
          -0.0042345,
          51.509856
        ]
      },
      "properties": {
        "name": "F45 Training",
        "address": "Clove Crescent 2",
        "postcode": "E14 2BE",
        "sport": "fitness;hiit;athletics"
      }
    },
    {
      "type": "Feature",
      "geometry": {
        "type": "Point",
        "coordinates": [
          0.0092916,
          51.5152565
        ]
      },
      "properties": {
        "name": "The Gym",
        "address": "Minnie Baldock Street",
        "postcode": "E16 1YE",
        "sport": "weightlifting;running;gym;gymnasium;powerlifting;prowler"
      }
    },
    {
      "type": "Feature",
      "geometry": {
        "type": "Point",
        "coordinates": [
          -0.1472891,
          51.4834107
        ]
      },
      "properties": {
        "name": "BMF",
        "address": "",
        "postcode": "",
        "sport": ""
      }
    },
    {
      "type": "Feature",
      "geometry": {
        "type": "Point",
        "coordinates": [
          -0.0002247,
          51.5134435
        ]
      },
      "properties": {
        "name": "Oxbow Gym",
        "address": "",
        "postcode": "",
        "sport": ""
      }
    },
    {
      "type": "Feature",
      "geometry": {
        "type": "Point",
        "coordinates": [
          -0.1772127,
          51.4938619
        ]
      },
      "properties": {
        "name": "Retrofit London",
        "address": "Harrington Road 33",
        "postcode": "",
        "sport": "fitness"
      }
    },
    {
      "type": "Feature",
      "geometry": {
        "type": "Point",
        "coordinates": [
          -0.0882886,
          51.4724504
        ]
      },
      "properties": {
        "name": "Zen Yoga",
        "address": "Camberwell Grove 24A",
        "postcode": "SE5 8RE",
        "sport": "yoga"
      }
    },
    {
      "type": "Feature",
      "geometry": {
        "type": "Point",
        "coordinates": [
          -0.0786098,
          51.5305001
        ]
      },
      "properties": {
        "name": "New City Fitness",
        "address": "Redvers Street",
        "postcode": "N1 6NE",
        "sport": ""
      }
    },
    {
      "type": "Feature",
      "geometry": {
        "type": "Point",
        "coordinates": [
          -0.1326644,
          51.5250158
        ]
      },
      "properties": {
        "name": "TeamUCL Gym",
        "address": "Gordon Street 15",
        "postcode": "WC1H 0AH",
        "sport": ""
      }
    },
    {
      "type": "Feature",
      "geometry": {
        "type": "Point",
        "coordinates": [
          -0.0476245,
          51.5440279
        ]
      },
      "properties": {
        "name": "The Refinery",
        "address": "Collent Street 14",
        "postcode": "E9 6SG",
        "sport": "yoga;pilates"
      }
    },
    {
      "type": "Feature",
      "geometry": {
        "type": "Point",
        "coordinates": [
          -0.1248796,
          51.5242385
        ]
      },
      "properties": {
        "name": "The Gym",
        "address": "",
        "postcode": "",
        "sport": ""
      }
    },
    {
      "type": "Feature",
      "geometry": {
        "type": "Point",
        "coordinates": [
          -0.1320532,
          51.4260576
        ]
      },
      "properties": {
        "name": "The Gym Group",
        "address": "Station Approach 7",
        "postcode": "",
        "sport": ""
      }
    },
    {
      "type": "Feature",
      "geometry": {
        "type": "Point",
        "coordinates": [
          -0.1673324,
          51.4983412
        ]
      },
      "properties": {
        "name": "Eqvvs Training",
        "address": "Cheval Place 43",
        "postcode": "",
        "sport": "fitness"
      }
    },
    {
      "type": "Feature",
      "geometry": {
        "type": "Point",
        "coordinates": [
          -0.3018826,
          51.4610915
        ]
      },
      "properties": {
        "name": "Digme Fitness",
        "address": "Sheen Road 23",
        "postcode": "TW9 1BN",
        "sport": ""
      }
    },
    {
      "type": "Feature",
      "geometry": {
        "type": "Point",
        "coordinates": [
          -0.1766136,
          51.4842213
        ]
      },
      "properties": {
        "name": "Triyoga",
        "address": "King's Road 372",
        "postcode": "",
        "sport": "yoga"
      }
    },
    {
      "type": "Feature",
      "geometry": {
        "type": "Point",
        "coordinates": [
          0.117563,
          51.5674284
        ]
      },
      "properties": {
        "name": "The Gym",
        "address": "",
        "postcode": "",
        "sport": ""
      }
    },
    {
      "type": "Feature",
      "geometry": {
        "type": "Point",
        "coordinates": [
          -0.1605511,
          51.5001974
        ]
      },
      "properties": {
        "name": "Core Collective",
        "address": "Pavilion Road 23",
        "postcode": "",
        "sport": "fitness"
      }
    },
    {
      "type": "Feature",
      "geometry": {
        "type": "Point",
        "coordinates": [
          -0.1872182,
          51.4951941
        ]
      },
      "properties": {
        "name": "Harbour Club",
        "address": "Cromwell Road 116",
        "postcode": "SW7 4XR",
        "sport": "fitness"
      }
    },
    {
      "type": "Feature",
      "geometry": {
        "type": "Point",
        "coordinates": [
          -0.1245799,
          51.5784897
        ]
      },
      "properties": {
        "name": "3Tribes",
        "address": "",
        "postcode": "",
        "sport": ""
      }
    },
    {
      "type": "Feature",
      "geometry": {
        "type": "Point",
        "coordinates": [
          -0.1670252,
          51.4935799
        ]
      },
      "properties": {
        "name": "Vita Pilates",
        "address": "Ives Street 1a",
        "postcode": "",
        "sport": "pilates"
      }
    },
    {
      "type": "Feature",
      "geometry": {
        "type": "Point",
        "coordinates": [
          -0.1846797,
          51.4840458
        ]
      },
      "properties": {
        "name": "Urban Fitness",
        "address": "Fulham Road 270",
        "postcode": "",
        "sport": "fitness"
      }
    },
    {
      "type": "Feature",
      "geometry": {
        "type": "Point",
        "coordinates": [
          -0.1852788,
          51.4829834
        ]
      },
      "properties": {
        "name": "Duo Chelsea",
        "address": "Gunter Grove 2a",
        "postcode": "",
        "sport": "fitness"
      }
    },
    {
      "type": "Feature",
      "geometry": {
        "type": "Point",
        "coordinates": [
          -0.0585604,
          51.5444042
        ]
      },
      "properties": {
        "name": "Tempo Pilates",
        "address": "Reading Lane",
        "postcode": "",
        "sport": "pilates"
      }
    },
    {
      "type": "Feature",
      "geometry": {
        "type": "Point",
        "coordinates": [
          -0.1765485,
          51.4842525
        ]
      },
      "properties": {
        "name": "F45 Training",
        "address": "King's Road 370",
        "postcode": "",
        "sport": ""
      }
    },
    {
      "type": "Feature",
      "geometry": {
        "type": "Point",
        "coordinates": [
          -0.178776,
          51.4871905
        ]
      },
      "properties": {
        "name": "Ultimate Performance Chelsea",
        "address": "Fulham Road 293",
        "postcode": "",
        "sport": "fitness"
      }
    },
    {
      "type": "Feature",
      "geometry": {
        "type": "Point",
        "coordinates": [
          0.0221996,
          51.5074817
        ]
      },
      "properties": {
        "name": "Residents Gymnasium",
        "address": "",
        "postcode": "",
        "sport": ""
      }
    },
    {
      "type": "Feature",
      "geometry": {
        "type": "Point",
        "coordinates": [
          -0.1711604,
          51.4915405
        ]
      },
      "properties": {
        "name": "Core Flex Pilates",
        "address": "Pond Place 2",
        "postcode": "",
        "sport": "pilates"
      }
    },
    {
      "type": "Feature",
      "geometry": {
        "type": "Point",
        "coordinates": [
          -0.1586028,
          51.4935544
        ]
      },
      "properties": {
        "name": "KXU",
        "address": "Pavilion Road 241",
        "postcode": "",
        "sport": "fitness"
      }
    },
    {
      "type": "Feature",
      "geometry": {
        "type": "Point",
        "coordinates": [
          -0.1579029,
          51.492199
        ]
      },
      "properties": {
        "name": "Vita Boutique Fitness",
        "address": "Sloane Square 31",
        "postcode": "SW1W 8AQ",
        "sport": "fitness;yoga;pilates;cafe"
      }
    },
    {
      "type": "Feature",
      "geometry": {
        "type": "Point",
        "coordinates": [
          0.0187645,
          51.5085392
        ]
      },
      "properties": {
        "name": "Resident's Gym",
        "address": "",
        "postcode": "",
        "sport": ""
      }
    },
    {
      "type": "Feature",
      "geometry": {
        "type": "Point",
        "coordinates": [
          -0.0802024,
          51.5551285
        ]
      },
      "properties": {
        "name": "Yoga Home",
        "address": "Allen Road 14",
        "postcode": "N16 8SD",
        "sport": "yoga"
      }
    },
    {
      "type": "Feature",
      "geometry": {
        "type": "Point",
        "coordinates": [
          -0.0394529,
          51.4937094
        ]
      },
      "properties": {
        "name": "Surrey Docks Fitness & Water Sports Centre",
        "address": "Rope Street",
        "postcode": "SE16 7SX",
        "sport": "multi;water_sports;gym"
      }
    },
    {
      "type": "Feature",
      "geometry": {
        "type": "Point",
        "coordinates": [
          -0.0047664,
          51.5068218
        ]
      },
      "properties": {
        "name": "Elasko",
        "address": "Fairmont Avenue 4",
        "postcode": "E14 9JB",
        "sport": ""
      }
    },
    {
      "type": "Feature",
      "geometry": {
        "type": "Point",
        "coordinates": [
          0.010425,
          51.3773853
        ]
      },
      "properties": {
        "name": "2BX",
        "address": "",
        "postcode": "",
        "sport": ""
      }
    },
    {
      "type": "Feature",
      "geometry": {
        "type": "Point",
        "coordinates": [
          -0.1209281,
          51.4533393
        ]
      },
      "properties": {
        "name": "Jetts Fitness",
        "address": "Brixton Hill 116 - 120",
        "postcode": "SW2 1SA",
        "sport": "fitness;weightlifting"
      }
    },
    {
      "type": "Feature",
      "geometry": {
        "type": "Point",
        "coordinates": [
          -0.0182266,
          51.6111744
        ]
      },